drone_id,time,pos_x,pos_y,pos_z,vel_x,vel_y,vel_z,roll,pitch,yaw,wx,wy,wz,rpm0,rpm1,rpm2,rpm3,des_pos_x,des_pos_y,des_pos_z,des_vel_x,des_vel_y,des_vel_z,des_roll,des_pitch,des_yaw,u_m1,u_m2,u_m3,u_m4
0,0.0,1.8369701987210297e-17,0.0,0.09744854159469743,0.0,0.0,-0.20409029009236587,0.0,-0.0,0.0,0.0,0.0,0.0,0.0,0.0,0.0,0.0,1.0,1.0,1.0,0.0,0.0,0.0,-0.02855898077502038,0.028524105015229617,-0.0008147302395241762,15592.270558856242,15598.306114611849,15592.268062259664,15586.04882701458
0,0.020833333333333332,1.2426315054123893e-08,1.2431375634257805e-08,0.0936109407733228,1.988138284464212e-06,1.9889478584782173e-06,-0.17095296011338282,-6.290840144969322e-05,6.28827634434488e-05,-5.404932412034539e-07,-0.005032107949730091,0.005030060760934858,-4.307641122625539e-05,15592.270558856242,15598.306114611849,15592.268062259664,15586.04882701458,1.0,1.0,1.0,0.0,0.0,0.0,-0.028713463799596915,0.02867801978980955,-0.000823558574356429,15550.257338005416,15555.106488272362,15550.255303187067,15545.241545390341
0,0.041666666666666664,2.69660825804985e-07,2.697704951423406e-07,0.0904472879317998,2.333911485649242e-05,2.3348602885905428e-05,-0.13912824355901163,-0.00021818502383069165,0.00021809567119987806,-1.942340086068473e-06,-0.00906691808173079,0.009063218359042157,-8.16805972048864e-05,15550.257338005416,15555.106488272362,15550.255303187067,15545.241545390341,1.0,1.0,1.0,0.0,0.0,0.0,-0.028863450248635934,0.028827449353821866,-0.0008321753272533608,15509.37637410128,15513.258375193916,15509.37471782036,15505.345446603398
0,0.0625,1.4398225238648997e-06,1.4404073045359542e-06,0.0879307473547818,8.458298722298246e-05,8.461730731247296e-05,-0.1085753440663755,-0.0004473799620316157,0.00044719553464479323,-4.151595402415972e-06,-0.012290556641049,0.012285531574927826,-0.0001161834991002794,15509.37637410128,15513.258375193916,15509.37471782036,15505.345446603398,1.0,1.0,1.0,0.0,0.0,0.0,-0.029007102293721818,0.028970564048517167,-0.0008404701120265437,15469.595504243105,15472.688298178859,15469.594157714786,15466.369860777893
0,0.08333333333333333,4.561392780584119e-06,4.563241720029602e-06,0.08603531447541655,0.00020178743827876838,0.00020186906765079556,-0.07925496538883085,-0.0007354777230175176,0.0007351720921098666,-7.12686198117907e-06,-0.01485368629214913,0.014847605357089956,-0.00014693662656491032,15469.595504243105,15472.688298178859,15469.594157714786,15466.369860777893,1.0,1.0,1.0,0.0,0.0,0.0,-0.029142928462377225,0.029105879351955632,-0.0008483507826137476,15430.884766786494,15433.332880854723,15430.883673684675,15428.3184076002
0,0.10416666666666667,1.0961456680892137e-05,1.0965887868823531e-05,0.08473578586609613,0.00038742973849504773,0.0003875858151179016,-0.05112921158321161,-0.001070244155593693,0.0010697952448956302,-1.083183143767293e-05,-0.016878370381327328,0.016871454613131855,-0.00017426695129174404,15430.884766786494,15433.332880854723,15430.883673684675,15428.3184076002,1.0,1.0,1.0,0.0,0.0,0.0,-0.029269720258730605,0.02923219267438193,-0.0008557404308395487,15393.216152841738,15395.137066165225,15393.215267347347,15391.1902788667
0,0.125,2.2189901362289197e-05,2.219884121309169e-05,0.08400773121920733,0.0006510969167347274,0.0006513578468677531,-0.02416149461012329,-0.0014416995403632624,0.001441088401417443,-1.5231368769218663e-05,-0.018463588260766776,0.01845601861422121,-0.00019847497044979672,15393.216152841738,15395.137066165225,15393.215267347347,15391.1902788667,1.0,1.0,1.0,0.0,0.0,0.0,-0.029386500858725226,0.029348532195943466,-0.0008625749592487981,15356.5633636204,15358.052642950377,15356.562648635034,15354.981226131375
0,0.14583333333333334,3.9966433963679895e-05,3.99824705192777e-05,0.08382746714845046,0.0010000484458811752,0.0010004467498719771,0.0016835495637573007,-0.001841693095328123,0.001840903192620336,-2.028967873495975e-05,-0.019689670869489345,0.019681595485121325,-0.00021983466939185629,15356.5633636204,15358.052642950377,15356.562648635034,15354.981226131375,1.0,1.0,1.0,0.0,0.0,0.0,-0.0294924835377335,0.029454115411255533,-0.0008688011092864885,15320.90158673203,15322.037033141543,15320.901012308168,15319.684326497973
0,0.16666666666666666,6.613770078007525e-05,6.61641155084181e-05,0.08417203038187528,0.0014396449658879145,0.0014402143203323665,0.026439828590068257,-0.002263559082731969,0.0022625757498520335,-2.596965234865457e-05,-0.020621871234490028,0.020613411601834875,-0.00023859457608313208,15320.90158673203,15322.037033141543,15320.901012308168,15319.684326497973,1.0,1.0,1.0,0.0,0.0,0.0,-0.02958703841970964,0.029548315972369954,-0.0008743748801304761,15286.207729166043,15287.052729173534,15286.207271165142,15285.291012022386
0,0.1875,0.000102642149304704,0.000102682931081221,0.08501913429345676,0.0019737087835892085,0.0019744832376059683,0.05013887570482683,-0.0027018386359001505,0.002700648669054441,-3.223284568948068e-05,-0.021313241323437277,0.021304497413218083,-0.00025497940061330404,15286.207729166043,15287.052729173534,15286.207271165142,15285.291012022386,1.0,1.0,1.0,0.0,0.0,0.0,-0.029669660000686313,0.029630631312268063,-0.0008792599094030185,15252.461647338405,15253.067882275147,15252.461286308193,15251.79294266209
0,0.20833333333333334,0.00015148235648647227,0.00015154220138216648,0.0863471334052306,0.002604853046013749,0.0026058663998316713,0.07281111828728672,-0.0031520545526160177,0.0031506459127868835,-3.9039764999276576e-05,-0.021806951141395824,0.02179800562051778,-0.0002691919270327239,15252.461647338405,15253.067882275147,15252.461286308193,15251.79294266209,1.0,1.0,1.0,0.0,0.0,0.0,-0.02973994805759252,0.029700663609674827,-0.0008834265739185027,15219.64433441,15220.053974272345,15219.64405465746,15219.180710209464
0,0.22916666666666666,0.0002147026397147673,0.0002147869393299984,0.08813500790023714,0.0033347025892109593,0.00333598789055065,0.09448632335398637,-0.003610528820554542,0.0036088904203311865,-4.635027010740813e-05,-0.022138160976841324,0.022129082631646226,-0.0002814149889572231,15219.64433441,15220.053974272345,15219.64405465746,15219.180710209464,1.0,1.0,1.0,0.0,0.0,0.0,-0.029797593145263705,0.029758105327244877,-0.0008868513099139566,15187.737239040616,15187.984720596029,15187.737027874868,15187.443573875145
0,0.25,0.00029437092748267396,0.00029448574811642974,0.09036235006834949,0.004164085546836505,0.0041656746910734895,0.11519361384187733,-0.0040742346609833405,0.0040723562164076185,-5.412399308203075e-05,-0.02233553450492038,0.022326380995955873,-0.00029181341837203404,15187.737239040616,15187.984720596029,15187.737027874868,15187.443573875145,1.0,1.0,1.0,0.0,0.0,0.0,-0.029842361711345175,0.0298027243741521,-0.0008895158666549774,15156.722193304788,15156.835661732388,15156.72204042528,15156.569725748537
0,0.2708333333333333,0.0003925641515746673,0.00039271620616942397,0.09300935106079532,0.005093188307354357,0.0050951117240626035,0.13496148246424206,-0.004540676475717321,0.004538548407312504,-6.232071981935443e-05,-0.02242246216925654,0.02241328223197667,-0.0003005358921097148,15156.722193304788,15156.835661732388,15156.72204042528,15156.569725748537,1.0,1.0,1.0,0.0,0.0,0.0,-0.029874083905731597,0.02983435195641282,-0.0008914066823252683,15126.581355790684,15126.58383440174,15126.581252796383,15126.546506812203
0,0.2916666666666667,0.0005113564870232067,0.0005115531014977988,0.09605678790965508,0.006121680850290654,0.006123967261526983,0.15381780367443126,-0.005007792364383954,0.005005405734815871,-7.090071205573596e-05,-0.02241805111828185,0.022408886310651348,-0.00030771664384070946,15126.581355790684,15126.58383440174,15126.581252796383,15126.546506812203,1.0,1.0,1.0,0.0,0.0,0.0,-0.02989264358285998,0.029852872614557713,-0.0008925143597386335,15097.297167387911,15097.207507407198,15097.297107385835,15097.360583571768
0,0.3125,0.0006528098961773793,0.0006530589714862819,0.09948601077834457,0.007248818177232743,0.007251494415354382,0.17178984417193363,-0.005473874912905911,0.005471221391460845,-7.982496415241729e-05,-0.02233792687828455,0.022328812961804927,-0.0003134770287447309,15097.297167387911,15097.207507407198,15097.297107385835,15097.360583571768,1.0,1.0,1.0,0.0,0.0,0.0,-0.029897970085155143,0.02985821603800831,-0.0008928332233556786,15068.852317549528,15068.685969856058,15068.852294843899,15068.998093168517
0,0.3333333333333333,0.0008189665379399006,0.000819276508969489,0.1032789304172297,0.008473522435647788,0.008476613310530786,0.18890427231175133,-0.0059375067845623625,0.005934578630856135,-8.905539793842865e-05,-0.022194883070324925,0.02218585109705305,-0.0003179269396467092,15068.852317549528,15068.685969856058,15068.852294843899,15068.998093168517,1.0,1.0,1.0,0.0,0.0,0.0,-0.029890031474390358,0.029850350323799235,-0.0008923609425853189,15041.229719094961,15040.999361723829,15041.22972894122,15041.444763142445
0,0.3541666666666667,0.001011842687499903,0.001012222479723491,0.1074180058052108,0.009794449437243056,0.009797977644515553,0.20518716671124823,-0.006397508312654604,0.006394298373773503,-9.855500310502169e-05,-0.021999408372658867,0.021990485538156006,-0.00032116608009636423,15041.229719094961,15040.999361723829,15041.22972894122,15041.444763142445,1.0,1.0,1.0,0.0,0.0,0.0,-0.029868828941087354,0.029829276410463956,-0.0008910982091652024,15014.412489901748,15014.128538600278,15014.412528312358,15014.686010709116
0,0.375,0.0012334238797672434,0.001233882864424605,0.11188623196351265,0.011210042553645688,0.011214028617004256,0.2206640242901993,-0.006852894831061934,0.006849396547744811,-0.00010828793212016208,-0.021760114236158746,0.021751324547207435,-0.00032328510342333574,15014.412489901748,15014.128538600278,15014.412528312358,15014.686010709116,1.0,1.0,1.0,0.0,0.0,0.0,-0.029834392173233283,0.029795023468940363,-0.000889048458687933,14988.383940096046,14988.054963990868,14988.384003687424,14988.707025404448
0,0.3958333333333333,0.001485661044437552,0.0014862089928756165,0.11666712793220475,0.012718576395022298,0.01272303863690143,0.23535976792997967,-0.007302841911679243,0.007299049330246693,-0.0001182195586028939,-0.021484082293073213,0.02147544708956221,-0.0003243666284867729,14988.383940096046,14988.054963990868,14988.384003687424,14988.707025404448,1.0,1.0,1.0,0.0,0.0,0.0,-0.029786775506923772,0.029747645073560536,-0.0008862176281817652,14963.127563585811,14962.760623800346,14963.12764945779,14963.492838166301
0,0.4166666666666667,0.0017704674447744382,0.0017711144824791383,0.12174472490332924,0.014318192213482584,0.014323146749335419,0.2492987538962237,-0.0077466570265264725,0.007742564814107697,-0.0001283165073077985,-0.02117714673276151,0.02116868509528846,-0.00032448614332446067,14963.127563585811,14962.760623800346,14963.12764945779,14963.492838166301,1.0,1.0,1.0,0.0,0.0,0.0,-0.029726054714963625,0.029687216009523176,-0.0008826139431526662,14938.627032984146,14938.227958647025,14938.627138625034,14939.028379306958
0,0.4375,0.002089716267857193,0.0020904728286180304,0.12710355450709132,0.01600692660008752,0.01601238735234485,0.26250477913502923,-0.008183756433723887,0.008179359894975388,-0.00013854666275693936,-0.020844123971772394,0.020835853039975528,-0.00032371280768331425,14938.627032984146,14938.227958647025,14938.627138625034,14939.028379306958,1.0,1.0,1.0,0.0,0.0,0.0,-0.029652324316507342,0.029613829600230623,-0.0008782477287162718,14914.866197143925,14914.439810486696,14914.86632035574,14915.298527346615
0,0.4583333333333333,0.0024452387428676504,0.0024461155234430814,0.1327286372495104,0.017782734743972028,0.01778871347240762,0.2750010885249185,-0.008613646313748563,0.008608941407746016,-0.0001488791623700061,-0.020488999575974453,0.020480934797441508,-0.00032211016486603686,14914.866197143925,14914.439810486696,14914.86632035574,14915.298527346615,1.0,1.0,1.0,0.0,0.0,0.0,-0.02956569531273275,0.02952759545971273,-0.0008731312404465195,14891.829080671043,14891.379380699487,14891.829219510539,14892.288150295633
0,0.4791666666666667,0.002838822687308295,0.002839830602898795,0.138605471101362,0.019643509280098663,0.019650015625868128,0.2868103821443448,-0.00903590736601176,0.009030890722361533,-0.00015928437881527238,-0.020115080485003538,0.020107235810256717,-0.0003197367725086672,14891.829080671043,14891.379380699487,14891.829219510539,14892.288150295633,1.0,1.0,1.0,0.0,0.0,0.0,-0.029466293271302,0.029428637593074347,-0.0008672785113846213,14869.499884905254,14869.030197339544,14869.50003763738,14869.982140669115
0,0.5,0.0032722113999223224,0.0032733615407066845,0.14472002023926112,0.021587095556982717,0.021594137098043018,0.2979548225966531,-0.009450182224310481,0.00944485115780027,-0.00016973389529844726,-0.019725119052508764,0.01971750708830373,-0.00031664676110581966,14869.499884905254,14869.030197339544,14869.50003763738,14869.982140669115,1.0,1.0,1.0,0.0,0.0,0.0,-0.029354256696771622,0.029317092782271903,-0.0008607052123214189,14847.862989958485,14847.376089690377,14847.863155019571,14848.365445275726
0,0.5208333333333334,0.003747102834382233,0.003748406423329515,0.1510587039404335,0.023611303998173908,0.02361888631414969,0.30845604242029373,-0.009856165169920049,0.009850517693230181,-0.00018020047664592744,-0.019321414176490102,0.019314046306899767,-0.0003128903281914303,14847.862989958485,14847.376089690377,14847.863155019571,14848.365445275726,1.0,1.0,1.0,0.0,0.0,0.0,-0.029229735635808267,0.029193109206171908,-0.0008534285230144874,14826.90295748306,14826.401168627159,14826.903133451706,14827.423090628618
0,0.5416666666666666,0.004265149000215885,0.004266617352348867,0.15760838563316235,0.025713920103984392,0.025722046848840722,0.3183351516010426,-0.010253593718477106,0.010247628552624224,-0.00019065803832424738,-0.01890589379392275,0.01889878027664718,-0.00030851417531755287,14826.90295748306,14826.401168627159,14826.903133451706,14827.423090628618,1.0,1.0,1.0,0.0,0.0,0.0,-0.02909289047556576,0.029056845253340402,-0.0008454670124513758,14806.604533910144,14806.089811577487,14806.604719484112,14807.140204671305
0,0.5625,0.004827955547502239,0.0048296000307571875,0.16435636210513885,0.02789271253701789,0.027901385518139376,0.32761274519445194,-0.010642241735752365,0.010635958318047955,-0.0002010816149571951,-0.018480182206117197,0.018473332249759868,-0.00030356189417252643,14806.604533910144,14806.089811577487,14806.604719484112,14807.140204671305,1.0,1.0,1.0,0.0,0.0,0.0,-0.02894389090129848,0.028908468493676454,-0.0008368405266385524,14786.95265395369,14786.426651106864,14786.952847931636,14787.502035386187
0,0.5833333333333334,0.005437081500040052,0.005438913497840916,0.1712903528720346,0.030145439651749376,0.03015465891422319,0.3363089110602306,-0.011021913801467264,0.011015312290855514,-0.00021144732943971346,-0.018045655048247015,0.018039076875061774,-0.00029807430749811714,14786.95265395369,14786.426651106864,14786.952847931636,14787.502035386187,1.0,1.0,1.0,0.0,0.0,0.0,-0.028782914985563013,0.02874815478129178,-0.000827570082697739,14767.932444220074,14767.39656634504,14767.932645487013,14768.49396675262
0,0.6041666666666666,0.006094039108331658,0.006096069983973887,0.17839848970858832,0.03246985476093079,0.0324796186759937,0.3444432377053512,-0.011392440592318066,0.01138552187201881,-0.00022173236338580814,-0.01760348418828523,0.017597185085846515,-0.0002920897698302276,14767.932444220074,14767.39656634504,14767.932645487013,14768.49396675262,1.0,1.0,1.0,0.0,0.0,0.0,-0.028610148386466472,0.028576087466103406,-0.0008176777682980998,14749.529226799787,14748.984676622968,14749.529434315631,14750.101532440083
0,0.625,0.006800293799121214,0.00680253486204043,0.18566930634438605,0.034863710376902814,0.034874015733647144,0.3520348222290749,-0.01175367509763098,0.011746440775058896,-0.00023191492936935665,-0.01715467441274293,0.017148660777257203,-0.0002856444325500305,14749.529226799787,14748.984676622968,14749.529434315631,14750.101532440083,1.0,1.0,1.0,0.0,0.0,0.0,-0.028425783636574813,0.02839245669577628,-0.0008071866456543057,14731.728522746707,14731.176336814391,14731.728735537188,14732.31042755568
0,0.6458333333333334,0.007557264202617258,0.0075597266766005995,0.1930917283263407,0.03732476162152151,0.03733560372106677,0.35910227836049174,-0.012105489515434734,0.012097941919401231,-0.00024197424520587123,-0.016700093410146527,0.01669437078350233,-0.00027877247718226776,14731.728522746707,14731.176336814391,14731.728735537188,14732.31042755568,1.0,1.0,1.0,0.0,0.0,0.0,-0.028230019507477624,0.028197458792999397,-0.0007961206594849363,14714.516055374224,14713.957133976557,14714.516272523764,14715.106518711731
0,0.6666666666666666,0.008366322242102533,0.008369017235485138,0.20065506304965736,0.03985076896238441,0.03986214171381498,0.36566374457740125,-0.012447772704699496,0.012439914879930104,-0.00025189051036707114,-0.01624049628205608,0.016235069384239575,-0.000271506320481225,14714.516055374224,14713.957133976557,14714.516272523764,14715.106518711731,1.0,1.0,1.0,0.0,0.0,0.0,-0.028023060437760913,0.02799129569584835,-0.0007845045484591359,14697.877753316148,14697.312884965751,14697.877973962277,14698.475852635383
0,0.6875,0.009228793273543538,0.00923173175141909,0.20834898995882511,0.04243950040377197,0.042451396421219825,0.37173689229420936,-0.012780428092259368,0.01277226379128078,-0.0002616448845071901,-0.015776545583379892,0.01577141834152515,-0.0002638767944307049,14697.877753316148,14697.312884965751,14697.877973962277,14698.475852635383,1.0,1.0,1.0,0.0,0.0,0.0,-0.02780511601438269,0.02777417445121455,-0.0007723637597675283,14681.799753315572,14681.229634769203,14681.799976644626,14682.404663506455
0,0.7083333333333334,0.010145956265182087,0.010149149023644239,0.2161635509199095,0.045088733236921974,0.045101143937239845,0.37733893410586733,-0.013103371951489159,0.013094905623957147,-0.00027121946800045876,-0.015308827708519197,0.015304003283604657,-0.0002559133039288322,14681.799753315572,14681.229634769203,14681.799976644626,14682.404663506455,1.0,1.0,1.0,0.0,0.0,0.0,-0.0275764004992744,0.027546306753106986,-0.000759724366540664,14666.268402716905,14665.69365534775,14666.268627960693,14666.87937918062
0,0.7291666666666666,0.011119044009022309,0.011122501651442976,0.22408914076514685,0.04779625543489063,0.04780917113541795,0.38248663207460526,-0.013416531984933595,0.013407768764487009,-0.0002805972843361446,-0.014837866289305685,0.014833347101231598,-0.0002476439646542203,14666.268402716905,14665.69365534775,14666.268627960693,14666.87937918062,1.0,1.0,1.0,0.0,0.0,0.0,-0.02733713239447986,0.027307908519119906,-0.0007466129879080928,14651.270261645743,14650.691444826982,14651.270488079066,14651.886626430987
0,0.75,0.012149243357700174,0.012152976273040938,0.2321164980105662,0.05055986676148757,0.05057327677745991,0.38719630604623434,-0.013719846155430392,0.013710791844168228,-0.00028976226418399423,-0.014364133148271287,0.01435992089995804,-0.00023909572328800055,14651.270261645743,14650.691444826982,14651.270488079066,14651.886626430987,1.0,1.0,1.0,0.0,0.0,0.0,-0.027087534040356666,0.027059199499576803,-0.0007330567115468971,14636.79210486895,14636.20972690883,14636.79233180773,14637.413235321412
0,0.7708333333333334,0.013237695481505603,0.013241713824649644,0.2402366957470911,0.053377379650925,0.053391272392119986,0.3914838419830287,-0.014013261720345997,0.014003922771034624,-0.0002986992309246845,-0.013888057251182502,0.01388415295211528,-0.0002302944620827711,14636.79210486895,14636.20972690883,14636.79233180773,14637.413235321412,1.0,1.0,1.0,0.0,0.0,0.0,-0.026827831242353203,0.026800402914832988,-0.0007190830186125253,14622.820923333082,14622.235450403841,14622.821150133008,14623.446242808717
0,0.7916666666666666,0.014385496141372725,0.014389809815456695,0.2484411327053092,0.05624661990434718,0.05626098297059687,0.39536470030059895,-0.014296734431775296,0.014287117927901409,-0.00030739388743271075,-0.013410032021517807,0.013406436011103091,-0.00022126508951736488,14622.820923333082,14622.235450403841,14622.821150133008,14623.446242808717,1.0,1.0,1.0,0.0,0.0,0.0,-0.026558252922678507,0.026531745117044148,-0.0007047197109790859,14609.343925383924,14608.75578880679,14609.344151439516,14609.97289565732
0,0.8125,0.015593695974506057,0.015598314615223997,0.2567215244938399,0.0591654272408611,0.059180247516093194,0.3988539241966862,-0.014570227872286096,0.014560341506078807,-0.0003158328039000624,-0.012930421313518908,0.012927133284535638,-0.00021203161861497644,14609.343925383924,14608.75578880679,14609.344151439516,14609.97289565732,1.0,1.0,1.0,0.0,0.0,0.0,-0.026279030793837803,0.02625345527334888,-0.0006899948407428098,14596.34853767361,14595.758139856633,14596.34876241755,14596.980652738905
0,0.8333333333333334,0.016863300790004674,0.01686823375184942,0.2650698950109887,0.06213165573371366,0.06214691947821298,0.4019661479604088,-0.014833712901294087,0.01482356494984577,-0.0003240034064956114,-0.012449564286458933,0.012446583308775268,-0.00020261723431091533,14596.34853767361,14595.758139856633,14596.34876241755,14596.980652738905,1.0,1.0,1.0,0.0,0.0,0.0,-0.025990399051539725,0.02596576506795034,-0.0006749366419624599,14583.822405764196,14583.230125036142,14583.822628666905,14584.45718678012
0,0.8541666666666666,0.01819527187241177,0.018200528216813207,0.2734785680291444,0.06514317415656251,0.0651588670971706,0.40471560525114086,-0.015087167191657815,0.015076766491279047,-0.0003318939666657461,-0.011967779378730602,0.011965103923442664,-0.0001930443511343467,14583.822405764196,14583.230125036142,14583.822628666905,14584.45718678012,1.0,1.0,1.0,0.0,0.0,0.0,-0.025692594084914484,0.025668908421028203,-0.0006595734646252151,14571.753394438809,14571.159588978579,14571.753615008169,14572.390385613679
0,0.875,0.019590526291577027,0.019596114776890966,0.28194015895115887,0.06819786626013224,0.06821397367812661,0.40711613733689256,-0.015330574839772411,0.015319930758721031,-0.0003394935908951844,-0.011485367544456495,0.011482995508545472,-0.00018333466233557972,14571.753394438809,14571.159588978579,14571.753615008169,14572.390385613679,1.0,1.0,1.0,0.0,0.0,0.0,-0.025385854202334905,0.02536312122274742,-0.0006439337108371992,14560.12958773279,14559.534598757953,14560.129805513949,14560.768352981737
0,0.8958333333333334,0.021049937217593143,0.021055866290889468,0.29044756673774774,0.07129363099573989,0.0713101378121566,0.4091812012827595,-0.015563926035462115,0.015553048445190221,-0.0003467922107613281,-0.011002614885892175,0.011000543617438624,-0.0001735091814374729,14560.12958773279,14559.534598757953,14560.129805513949,14560.768352981737,1.0,1.0,1.0,0.0,0.0,0.0,-0.02507041937141889,0.025048641080937406,-0.0006280457732448612,14548.939288698322,14548.343443047022,14548.939503273574,14549.579408934638
0,0.9166666666666666,0.02257433423987131,0.022580612030465425,0.2989939660047609,0.07442838269906013,0.07444527355724412,0.4109238780807098,-0.015787216780448844,0.015776116025514517,-0.0003537805731312211,-0.010519794790928223,0.010518021114925072,-0.0001635882771471044,14548.939288698322,14548.343443047022,14548.939503273574,14549.579408934638,1.0,1.0,1.0,0.0,0.0,0.0,-0.024746530972024,0.024725707081235893,-0.0006119379756977794,14538.171018916695,14537.574631133077,14538.171229905332,14538.812089863772
0,0.9375,0.024164503689666352,0.02417113800433366,0.30757279928900044,0.07760005124495278,0.07761731059013949,0.4123568807126753,-0.016000448646205177,0.01598913551299803,-0.00036045023036583655,-0.010037169665310534,0.01003568991005168,-0.00015359170241291672,14538.171018916695,14537.574631133077,14538.171229905332,14538.812089863772,1.0,1.0,1.0,0.0,0.0,0.0,-0.024414431561233275,0.024394559558693185,-0.0005956385161657255,14527.813517772542,14527.21689178617,14527.813724830714,14528.455148202858
0,0.9583333333333334,0.02582118896556095,0.025828187285370275,0.3161777694811036,0.08080658218208903,0.08082419433783937,0.4134925621395854,-0.016203628563666188,0.016192114248097245,-0.000366793530411942,-0.009554992333111174,0.009553802357152206,-0.00014353861837286422,14527.813517772542,14527.21689178617,14527.813724830714,14528.455148202858,1.0,1.0,1.0,0.0,0.0,0.0,-0.02407436464948451,0.02405543987997838,-0.0005791754119230091,14517.855741504925,14517.259171978443,14517.855944325409,14518.49755182906
0,0.9791666666666666,0.027545090861578383,0.027552460340276738,0.32480283242386326,0.08404593685440599,0.08406388609573433,0.41434292320964733,-0.016396768638642725,0.016385064712949537,-0.00037280360667681306,-0.009073507165832786,0.00907260238545054,-0.00013344761383362214,14517.855741504925,14517.259171978443,14517.855944325409,14518.49755182906,1.0,1.0,1.0,0.0,0.0,0.0,-0.023726574487118547,0.023708590235462568,-0.0005625764470125246,14508.286862049586,14507.690635455612,14508.287060361512,14508.928483191772
0,1.0,0.029336867897721986,0.029344615361599973,0.33344218967422734,0.08731609251502061,0.08733436313807252,0.41491962047980224,-0.01657988598790098,0.016568004366718986,-0.0003784743675954503,-0.008592950989695808,0.008592326406815768,-0.0001233367208798109,14508.286862049586,14507.690635455612,14508.287060361512,14508.928483191772,1.0,1.0,1.0,0.0,0.0,0.0,-0.02337130586072204,0.02335425344055242,-0.0005458691219996717,14499.096265687022,14498.50066116434,14499.096459255463,14499.737338194904
0,1.0208333333333333,0.031197136652841875,0.0312052686020062,0.3420902814270999,0.0906150424370893,0.09063361882524218,0.4152339739448959,-0.016753002591795935,0.016740955497646003,-0.00038380048581352396,-0.008113553811842042,0.008113204042331434,-0.000113223427133098,14499.096265687022,14498.50066116434,14499.096459255463,14499.737338194904,1.0,1.0,1.0,0.0,0.0,0.0,-0.023008803898721307,0.02299267274572947,-0.0005290806060238001,14490.273551510338,14489.67884154052,14490.273740135843,14490.913724855844
0,1.0416666666666667,0.03312647209981107,0.03313499471078831,0.35074177959895875,0.09394079602516194,0.09395966271143781,0.4152969746696765,-0.016916145160103133,0.01690394508844379,-0.00038877738692197583,-0.007635539398833511,0.007635458701109528,-0.0001031246851413291,14490.273551510338,14489.67884154052,14490.273740135843,14490.913724855844,1.0,1.0,1.0,0.0,0.0,0.0,-0.022639313885748694,0.022624091654822376,-0.0005122376911515202,14481.808529726834,14481.214980665085,14481.808713244798,14482.447461762498
0,1.0625,0.035125407943057345,0.03513432707265075,0.3593915810692114,0.09729137892981145,0.09731052065550697,0.4151192923192774,-0.017069345008316313,0.017057004692306973,-0.0003934012376909246,-0.007159125735018782,0.007159308038854444,-9.305691931197858e-05,14481.808529726834,14481.214980665085,14481.808713244798,14482.447461762498,1.0,1.0,1.0,0.0,0.0,0.0,-0.022263081085355945,0.022248753751092254,-0.0004953667490324824,14473.691219806551,14473.099092294411,14473.6913980865,14474.328576347998
0,1.0833333333333333,0.037194436958546684,0.03720375814886647,0.3680348010771249,0.1006648331676915,0.10068423493714551,0.4147112825843569,-0.017212637942189322,0.017200170317307636,-0.000397668933761553,-0.006684525383231058,0.006684964318684894,-8.303603079246623e-05,14473.691219806551,14473.099092294411,14473.6913980865,14474.328576347998,1.0,1.0,1.0,0.0,0.0,0.0,-0.021880350570691282,0.021866902530752075,-0.0004784936898544999,14465.911848490752,14465.3213977735,14465.912021435463,14466.547303001102
0,1.1041666666666667,0.03933401133635292,0.0393437398209384,0.3766667667720944,0.10405921724866071,0.10407886438009509,0.4140829944975505,-0.017346064148721262,0.017333482317374645,-0.00040157808676450154,-0.006211945766462014,0.006212634692813655,-7.30774006129827e-05,14465.911848490752,14465.3213977735,14465.912021435463,14466.547303001102,1.0,1.0,1.0,0.0,0.0,0.0,-0.02149136706279154,0.02147878124358371,-0.00046164392359077273,14458.460847672774,14457.872323840089,14458.461015217305,14459.094081029012
0,1.125,0.041544543025976384,0.041554683736927826,0.38528301091494804,0.10747260631119111,0.10749248448357519,0.41324417763834476,-0.017469668092129038,0.017456985288396107,-0.00040512701084254927,-0.005741589385671828,0.005742521420276527,-6.319589142806368e-05,14458.460847672774,14457.872323840089,14458.461015217305,14459.094081029012,1.0,1.0,1.0,0.0,0.0,0.0,-0.021096374776168585,0.021084632740341114,-0.00044484232352796915,14451.328852163046,14450.742500328284,14451.329014273633,14451.959552487933
0,1.1458333333333333,0.043826404084595864,0.04383696166063247,0.39387926572793275,0.11090309226693389,0.11092318756283787,0.41220428922390534,-0.017583498413634907,0.017570727968268265,-0.00040831470856352145,-0.005273653986275537,0.0052748220332351,-5.340584810136258e-05,14451.328852163046,14450.742500328284,14451.329014273633,14451.959552487933,1.0,1.0,1.0,0.0,0.0,0.0,-0.020695617271391686,0.020684699326656286,-0.0004281131920599833,14444.506697349745,14443.922757780285,14444.506854022555,14445.1345598956
0,1.1666666666666667,0.046179927028452195,0.04619090582381263,0.4024514568909794,0.1143487839550349,0.11436908289945141,0.41097250108378575,-0.017687607834129912,0.017674763139946342,-0.0004111408562169812,-0.004808332683596977,0.004809729462124204,-4.372109740730123e-05,14444.506697349745,14443.922757780285,14444.506854022555,14445.1345598956,1.0,1.0,1.0,0.0,0.0,0.0,-0.020289337314386653,0.020279222623180715,-0.0004114802287282695,14437.985416765867,14437.4041249748,14437.98556802567,14438.610143839178
0,1.1875,0.048605405187571754,0.04861680928167284,0.4109956976818058,0.11780780730656162,0.11782829690168951,0.4095577065168134,-0.017782053058964836,0.017769147536743864,-0.0004136057884949775,-0.004345814055657274,0.00434743212805811,-3.4154947047527346e-05,14437.985416765867,14437.4041249748,14437.98556802567,14438.610143839178,1.0,1.0,1.0,0.0,0.0,0.0,-0.019877776742187193,0.019868443431715344,-0.00039496650048588024,14431.75623957298,14431.177826380514,14431.756385471715,14432.377540490594
0,1.2083333333333333,0.05110309306404278,0.05111492627181263,0.41950828325738604,0.12127830551921606,0.12129897327521355,0.40796852702878666,-0.017866894684276855,0.017853941749283123,-0.00041571048256307095,-0.0038862822102378614,0.0038881140094144126,-2.4720184181652677e-05,14431.75623957298,14431.177826380514,14431.756385471715,14432.377540490594,1.0,1.0,1.0,0.0,0.0,0.0,-0.019461176334887545,0.01945260160709328,-0.00037859441415887506,14425.810587971577,14425.235279542881,14425.810728586792,14426.428179040875
0,1.2291666666666667,0.053673206694059415,0.053685472576860994,0.42798568507428875,0.12475843924235354,0.12477927320408193,0.4062133189499358,-0.017942197104389306,0.017929210133627187,-0.0004174565415334844,-0.0034299168318688905,0.0034319546882200253,-1.5429073659458792e-05,14425.810587971577,14425.235279542881,14425.810728586792,14426.428179040875,1.0,1.0,1.0,0.0,0.0,0.0,-0.019039775693555753,0.0190319359345974,-0.00036238569107538074,14420.140074547053,14419.568092412232,14420.140209980302,14420.753679064026
0,1.25,0.056315924013947104,0.05632862589100916,0.4364245454453712,0.12824638677220251,0.12826737554199452,0.40430017993139045,-0.018008028419925638,0.01799502072022931,-0.00041884617735680926,-0.002976893213326212,0.0029791293810031865,-6.293356082142644e-06,14420.140074547053,14419.568092412232,14420.140209980302,14420.753679064026,1.0,1.0,1.0,0.0,0.0,0.0,-0.01861381312387682,0.018606684012693053,-0.0003463613438293208,14414.736499560324,14414.16806062088,14414.736629935443,14415.34584782038
0,1.2708333333333333,0.05903138523037929,0.05904452619065254,0.4448216722303007,0.13174034425707706,0.13176147701357666,0.4022369553201678,-0.018064460346365913,0.018051445123420495,-0.0004198821931529507,-0.002527382275452714,0.002529808957836177,2.67575415488544e-06,14414.736499560324,14414.16806062088,14414.736629935443,14415.34584782038,1.0,1.0,1.0,0.0,0.0,0.0,-0.018183525525303133,0.018177082140883094,-0.00033054165514321936,14409.5918481911,14409.027164716601,14409.591973652445,14410.196677508531
0,1.2916666666666667,0.061819693194990234,0.06183327610934752,0.4531740336573699,0.13523852591228913,0.13525979242542258,0.400031244412441,-0.018111568122842675,0.018098558451225818,-0.00042056796500579625,-0.0020815505783177714,0.0020841599526650067,1.1467570722307181e-05,14409.5918481911,14409.027164716601,14409.591973652445,14410.196677508531,1.0,1.0,1.0,0.0,0.0,0.0,-0.017749148285497236,0.017743365212482987,-0.00031494615879147474,14404.698287741678,14404.137567359543,14404.698408452321,14405.298342474427
0,1.3125,0.06468091378358157,0.06469494131728226,0.46147875327406995,0.13873916424439858,0.13876055488654745,0.39769040658507765,-0.01814943042103076,0.018136439215356733,-0.00042090742324925177,-0.0016395603262240495,0.0016423445674192097,2.0071937019904462e-05,14404.698287741678,14404.137567359543,14404.698408452321,14405.298342474427,1.0,1.0,1.0,0.0,0.0,0.0,-0.01731091517985879,0.017305766612134343,-0.0002995936225433527,14400.048164808624,14399.491610489371,14400.048280948482,14400.643196385608
0,1.3333333333333333,0.06761507628011192,0.06762955090545264,0.4697331050238876,0.14224051028438112,0.14226201603784047,0.3952215673056496,-0.018178129254031103,0.018165169241272813,-0.0004209050332749994,-0.0012015693685797466,0.0012045206719021066,2.84792275558751e-05,14400.048164808624,14399.491610489371,14400.048280948482,14400.643196385608,1.0,1.0,1.0,0.0,0.0,0.0,-0.01686905827593479,0.01686451811787637,-0.00028450203308252875,14395.63400242903,14395.081812468838,14395.634114192962,14396.223769377844
0,1.3541666666666667,0.07062217376564978,0.07063709777472493,0.47793450844679886,0.14574083382924624,0.14576244629006144,0.39263162402130286,-0.01819774988518576,0.018184833578242448,-0.00042056577589473466,-0.0007677311982310584,0.0007708418010828227,3.668034895867664e-05,14395.63400242903,14395.081812468838,14395.634114192962,14396.223769377844,1.0,1.0,1.0,0.0,0.0,0.0,-0.0164238078425178,0.016419849807601583,-0.00026968858285819283,14391.448497207883,14390.90086521001,14391.448604803809,14392.032765181186
0,1.375,0.0737021635124593,0.07371753902995751,0.4860805240009427,0.14923842369159782,0.14926013506988448,0.38992725192705857,-0.01820838073679129,0.018195520409362797,-0.0004198951272916798,-0.0003381949485577923,0.00034145715111283116,4.466674055406261e-05,14391.448497207883,14390.90086521001,14391.448604803809,14392.032765181186,1.0,1.0,1.0,0.0,0.0,0.0,-0.015975392263243942,0.01597198996972926,-0.0002551696588208516,14387.484516432462,14386.941631288613,14387.48462007943,14388.063058231597
0,1.3958333333333333,0.07685496738337783,0.07687079637934213,0.494168848502972,0.1527315879565958,0.15275339107345645,0.3871149096142748,-0.01821011329870191,0.018197320961523048,-0.00041889903860042296,8.689460945839922e-05,-8.348842477843078e-05,5.243037396744595e-05,14387.484516432462,14386.941631288613,14387.48462007943,14388.063058231597,1.0,1.0,1.0,0.0,0.0,0.0,-0.015524037954508182,0.015521165017941208,-0.00024096083299450597,14383.735095179309,14383.197141051965,14383.735195105608,14384.307690774305
0,1.4166666666666667,0.08008047223663234,0.0800967565391151,0.5021973106845952,0.15621865424576425,0.15624054252692576,0.38420084460014553,-0.018203042038334036,0.01819032941679413,-0.000417583915497455,0.0005073968830159606,-0.000503854235173076,5.996372098455575e-05,14383.735095179309,14383.197141051965,14383.735195105608,14384.307690774305,1.0,1.0,1.0,0.0,0.0,0.0,-0.015069969287519568,0.015067599409820387,-0.0002270768548353775,14380.193433414868,14379.660589683943,14380.193529856599,14380.759870013011
0,1.4375,0.08337853033623532,0.08339527164378101,0.5101638668628435,0.15969796998764013,0.15971993745394555,0.3811910987392279,-0.01818726431812206,0.01817464283130134,-0.0004159565977826084,0.0009231751406536797,-0.0009195034319292218,6.725978817856998e-05,14380.193433414868,14379.660589683943,14380.193529856599,14380.759870013011,1.0,1.0,1.0,0.0,0.0,0.0,-0.014613408514266409,0.01461151556918705,-0.00021353164532460483,14376.852893107087,14376.325334230612,14376.852986306087,14377.41296528657
0,1.4583333333333333,0.08674895976811153,0.08676615966200348,0.518066596721619,0.1631679026957971,0.163189943950691,0.3780915135180812,-0.018162880307670232,0.018150361048894757,-0.00041402433758455274,0.0013340970717469784,-0.0013303035702436278,7.431213469901133e-05,14376.852893107087,14376.325334230612,14376.852986306087,14377.41296528657,1.0,1.0,1.0,0.0,0.0,0.0,-0.014154575697110861,0.014153133811876772,-0.00020033829274006786,14373.706995341941,14373.184890848657,14373.70708554356,14374.260505040616
0,1.4791666666666667,0.09019154486208732,0.09020920481829783,0.5259036992021036,0.1666268402522293,0.1666489504663803,0.3749077352343181,-0.018129992889233615,0.018117586608144737,-0.00041179477762319364,0.0017400348793648753,-0.0017361267044519251,8.111484921530095e-05,14373.706995341941,14373.184890848657,14373.70708554356,14374.260505040616,1.0,1.0,1.0,0.0,0.0,0.0,-0.013693688641995142,0.013692672274957518,-0.00018750905005959773,14370.749417446303,14370.23293195996,14370.749504897645,14371.296173925868
0,1.5,0.09370603661983117,0.09372415802061711,0.5336734884996389,0.1700731911944722,0.17009536608768674,0.3716452200614666,-0.01808870756333467,0.018076424649483107,-0.00040927592940281097,0.0021408652504158604,-0.002136849359417475,8.76625467905995e-05,14370.749417446303,14370.23293195996,14370.749504897645,14371.296173925868,1.0,1.0,1.0,0.0,0.0,0.0,-0.0132309628352081,0.013230346849367969,-0.0001750553339450898,14367.973990128485,14367.463283389556,14367.974075076694,14368.51380993809
0,1.5208333333333333,0.09729215314881483,0.09731073729390431,0.5413743901647169,0.1735053850058341,0.1735276208264218,0.3683092390010908,-0.018039132354956185,0.01802698282293291,-0.00040647615127831097,0.002536469327444009,-0.0025323525035850993,9.3950365226519e-05,14367.973990128485,14367.463283389556,14367.974075076694,14368.51380993809,1.0,1.0,1.0,0.0,0.0,0.0,-0.012766611383564884,0.012766371115838338,-0.00016298772525312304,14365.374694637307,14364.869921523066,14365.37477732791,14365.9074015755
0,1.5416666666666667,0.100949580102353,0.10096862821967204,0.5490049373057495,0.17692187240815158,0.17694416590990872,0.3649048827237012,-0.0179813777202905,0.017969371196400172,-0.0004034041264330609,0.0029267326812670606,-0.0029225215228743666,9.997396075998371e-05,14365.374694637307,14364.869921523066,14365.37477732791,14365.9074015755,1.0,1.0,1.0,0.0,0.0,0.0,-0.012300844957854256,0.012300956283980424,-0.00015131597101720323,14362.945659942663,14362.4469704865,14362.945740617986,14363.47108501702
0,1.5625,0.10467797112576605,0.10469748438165777,0.556563766891323,0.18032112565645686,0.1803434740734375,0.3614370663000626,-0.017915556454038778,0.017903702164515697,-0.0004000688408066939,0.003311545283812599,-0.003307246194755908,0.00010572950314447914,14362.945659942663,14362.4469704865,14362.945740617986,14363.47108501702,1.0,1.0,1.0,0.0,0.0,0.0,-0.011833871739415863,0.011834311134424347,-0.00014004898784651318,14360.68115994049,14360.18869935098,14360.681238838133,14361.1991413242
0,1.5833333333333333,0.10847694830869814,0.10849692781759077,0.5640496161496712,0.1837016388349214,0.18372403985417105,0.35791053382457544,-0.017841783597266923,0.017830090358026938,-0.0003964795610112746,0.0036908014806208435,-0.003686420662017732,0.00011121367007176769,14360.68115994049,14360.18869935098,14360.681238838133,14361.1991413242,1.0,1.0,1.0,0.0,0.0,0.0,-0.011365897369717489,0.011366641963893809,-0.0001291948666859435,14358.575610684722,14358.089519365,14358.575688036137,14359.085993669833
0,1.6041666666666667,0.11234610264360899,0.11236654947709199,0.5714613190631439,0.18706192815342176,0.18708437988585022,0.3543298629324739,-0.017760176345832653,0.01774865255374921,-0.00039264581227376377,0.004064399962678832,-0.004059943405806035,0.0001164236409707832,14358.575610684722,14358.089519365,14358.575688036137,14359.085993669833,1.0,1.0,1.0,0.0,0.0,0.0,-0.010897124902810359,0.010898152533115768,-0.00011876087888218305,14356.623567648396,14356.143981216163,14356.623643677518,14357.12620459534
0,1.625,0.11628499449044401,0.11630590968571627,0.5787978029554792,0.19040053224405903,0.19042303319363235,0.35069946921263384,-0.017670853959405684,0.017659507585092757,-0.00038857735644199704,0.004432243737231219,-0.004427717217666043,0.00012135709018379284,14356.623567648396,14356.143981216163,14356.623643677518,14357.12620459534,1.0,1.0,1.0,0.0,0.0,0.0,-0.010427754760547314,0.01042904401747169,-0.00010875348350066535,14354.81972301604,14354.34677232452,14354.81979793805,14355.314473299339
0,1.6458333333333333,0.12029315404747336,0.12031453861513045,0.586058085169728,0.19371601245695158,0.1937385614883841,0.34702361051784036,-0.01757393767110772,0.01756277625318688,-0.00038428417009064863,0.004794240097411853,-0.004789649170331247,0.00012601217954049673,14354.81972301604,14354.34677232452,14354.81979793805,14355.314473299339,1.0,1.0,1.0,0.0,0.0,0.0,-0.009957984690455904,0.009959514960296678,-9.91783358383182e-05,14353.158903009105,14352.692714169065,14353.158977029238,14353.645632959036
0,1.6666666666666667,0.12437008182827619,0.1243919367594076,0.5932412698347171,0.19700695315461264,0.19702954945974147,0.3433063911744056,-0.017469550597802766,0.017458581238627383,-0.0003797764227629488,0.005150300590490871,-0.005145650587138852,0.00013038755033018272,14353.158903009105,14352.692714169065,14353.158977029238,14353.645632959036,1.0,1.0,1.0,0.0,0.0,0.0,-0.009488009726165238,0.009489761228744342,-9.004029707727814e-05,14351.636065245944,14351.176759649017,14351.636138558442,14352.114648086263
0,1.6875,0.12851524914483192,0.12853757541740357,0.6003465447179811,0.200271962004219,0.2002946050672434,0.339551766093066,-0.017357817651070553,0.01734704701387491,-0.00037506445538285744,0.005500340984670248,-0.00549563700992634,0.00013448231471045337,14351.636065245944,14351.176759649017,14351.636138558442,14352.114648086263,1.0,1.0,1.0,0.0,0.0,0.0,-0.009018022150291417,0.009019975972141658,-8.134344502491384e-05,14350.24629613771,14349.793990481026,14350.24636892484,14350.716611919332
0,1.7083333333333333,0.13272809859666615,0.1327508971811662,0.6073731781631262,0.20350967026707611,0.20353235982884366,0.3357635447831205,-0.017238865448897595,0.017228299756335084,-0.0003701587588714283,0.005844281234332614,-0.0058395281653745345,0.0001382960465548573,14350.24629613771,14349.793990481026,14350.24636892484,14350.716611919332,1.0,1.0,1.0,0.0,0.0,0.0,-0.008548211459692874,0.008550349582753913,-7.309108588592073e-05,14348.98480832129,14348.539614633526,14348.984880752472,14349.446743852099
0,1.7291666666666667,0.13700804456598367,0.13703131643031452,0.6143205161096396,0.20671873308458477,0.2067414691061055,0.3319453952718017,-0.01711282222812119,0.017102467262150964,-0.0003650699529999206,0.006182045443748281,-0.0061772479297405305,0.00014182877177861705,14348.98480832129,14348.539614633526,14348.984880752472,14349.446743852099,1.0,1.0,1.0,0.0,0.0,0.0,-0.00807876433301207,0.008081069658898654,-6.528576701253681e-05,14347.846938130162,14347.408963799,14347.847010361205,14348.300386900966
0,1.75,0.1413544737187078,0.14137821983231014,0.6211879791931917,0.20989782976001975,0.20992061238538756,0.32810084793088895,-0.01697981775766139,0.016969678860740082,-0.00035980876551112745,0.0065135618292022305,-0.006508724291980356,0.0001450809581490277,14347.846938130162,14347.408963799,14347.847010361205,14348.300386900966,1.0,1.0,1.0,0.0,0.0,0.0,-0.007609864600425908,0.007612320970341591,-5.7929290579391245e-05,14346.828143103914,14346.397490904947,14346.828215276346,14347.27300521074
0,1.7708333333333333,0.14576674551132932,0.1457909668485284,0.6279750599245262,0.213045664035438,0.2130684935543362,0.32423329921259114,-0.016839983252576567,0.016830065330107658,-0.0003543860115390308,0.006838762679574477,-0.006833889315272333,0.00014805350462664238,14346.828143103914,14346.397490904947,14346.828215276346,14347.27300521074,1.0,1.0,1.0,0.0,0.0,0.0,-0.007141693215531635,0.007144285425914942,-5.102272812998292e-05,14345.923999537037,14345.50076766406,14345.924071777543,14346.360181599855
0,1.7916666666666667,0.1502441927034562,0.15026889024602344,0.6346813199450712,0.21616096436304344,0.2161838411730086,0.32034601529674017,-0.01669345128897656,0.016683758812967363,-0.0003488125733557559,0.007157584315396682,-0.007152679096970388,0.0001507477302385891,14345.923999537037,14345.50076766406,14345.924071777543,14346.360181599855,1.0,1.0,1.0,0.0,0.0,0.0,-0.006674428229299921,0.006677142043300721,-4.4566435942245634e-05,14345.130200067313,14344.714482164021,14345.130272487277,14345.557615145397
0,1.8125,0.1547861218759395,0.15481129661486673,0.6413063873574512,0.21924248417034967,0.21926540873896397,0.3164421356513373,-0.016540355719827284,0.016530892733700443,-0.0003430993804734348,0.007469967046430016,-0.007465033727021163,0.00015316536253128592,14345.130200067313,14344.714482164021,14345.130272487277,14345.557615145397,1.0,1.0,1.0,0.0,0.0,0.0,-0.006208244766030767,0.006211066920929209,-3.856007116129906e-05,14344.44255130407,14344.034436497095,14344.442623999203,14344.861118808152
0,1.8333333333333333,0.15939181395443844,0.15941746689092567,0.6478499541291189,0.22228900211849595,0.22231197494567512,0.31252467650849847,-0.016380831591679048,0.016371601716183366,-0.00033725739012714726,0.007775855127810262,-0.00777089724490304,0.00015530852562433136,14344.44255130407,14344.034436497095,14344.442623999203,14344.861118808152,1.0,1.0,1.0,0.0,0.0,0.0,-0.005743315001251956,0.005746233211943119,-3.3002608648045884e-05,14343.856971496389,14343.45654442966,14343.857044546465,14344.26661709779
0,1.8541666666666667,0.16406052473827465,0.16408665688393487,0.6543117735673712,0.22529932235309233,0.22532234393363063,0.3085965342578399,-0.01621501506234977,0.016206021502512626,-0.00033129756816380364,0.008075196714816655,-0.008070217595132963,0.0001571797278915887,14343.856971496389,14343.45654442966,14343.857044546465,14344.26661709779,1.0,1.0,1.0,0.0,0.0,0.0,-0.005279808141502882,0.005282811100174145,-2.7892358492935705e-05,14343.369488241271,14342.976829111612,14343.369561709962,14343.770143778187
0,1.875,0.16879148543441155,0.16881809781070012,0.6606916578640516,0.2282722747469892,0.22829534553351838,0.3046604887593338,-0.016043043319592734,0.016034288872654966,-0.00032523087036049985,0.008367943816341518,-0.008362946581409696,0.00015878184929583704,14343.369488241271,14342.976829111612,14343.369561709962,14343.770143778187,1.0,1.0,1.0,0.0,0.0,0.0,-0.004817890405949991,0.004820967778095486,-2.3226984144928634e-05,14342.976236231567,14342.591420825538,14342.976310166356,14343.367839612743
0,1.8958333333333333,0.173583903196384,0.1736109968332634,0.666989475708291,0.2312067151343906,0.2312298355009043,0.3007192065776524,-0.015865054500776996,0.015856541565049186,-0.00031906822419424936,0.00865405224710168,-0.008649039819466539,0.00016011812842381282,14342.976236231567,14342.591420825538,14342.976310166356,14343.367839612743,1.0,1.0,1.0,0.0,0.0,0.0,-0.004357725009782542,0.004360867426702164,-1.9003521106429784e-05,14342.673455043456,14342.29655477536,14342.673529475662,14343.055950149355
0,1.9166666666666667,0.17843696166799058,0.1784645376018436,0.6732051499656727,0.23410152553575614,0.2341246957418451,0.29677524413999773,-0.015681187613607407,0.015672918198185545,-0.0003128205110838377,0.008933481578667248,-0.008928456688648794,0.0001611921492193973,14342.673455043456,14342.29655477536,14342.673529475662,14343.055950149355,1.0,1.0,1.0,0.0,0.0,0.0,-0.003899472149339949,0.003902671197275165,-1.521839614572083e-05,14342.457486963092,14342.088568914081,14342.457561907966,14342.830823544857
0,1.9375,0.1833498215315501,0.18337788080235864,0.6793386554222528,0.23695561437296356,0.23697883452890056,0.29283105081939154,-0.015491582457909003,0.015483558193186534,-0.0003064985491229079,0.009206195089394523,-0.009201160282372485,0.00016200782748089973,14342.457486963092,14342.088568914081,14342.457561907966,14342.830823544857,1.0,1.0,1.0,0.0,0.0,0.0,-0.00344328898892401,0.0034465371949974344,-1.1867446979275248e-05,14342.324774852019,14341.96390181029,14342.324850308923,14342.6889084283
0,1.9583333333333333,0.18832162106051317,0.18835016470832147,0.685390016591909,0.2397679166742332,0.2397911867070403,0.2888889719453708,-0.015296379548499444,0.01528860169741186,-0.0003001130763220815,0.009472159713293975,-0.009467117357443263,0.00016256939711885204,14342.324774852019,14341.96390181029,14342.324850308923,14342.6889084283,1.0,1.0,1.0,0.0,0.0,0.0,-0.0029893296492511556,0.002992620464373319,-8.945942377186055e-06,14342.27186005082,14341.919090552827,14342.271936003486,14342.62675180276
0,1.9791666666666667,0.19335147667620953,0.1933805057368942,0.6913593055855273,0.2425373942683469,0.24256071388897024,0.2849512517440048,-0.015095720039171687,0.015088189509109283,-0.0002936747343764064,0.009731345987927553,-0.009726298282367466,0.0001628813962320158,14342.27186005082,14341.919090552827,14342.271936003486,14342.62675180276,1.0,1.0,1.0,0.0,0.0,0.0,-0.002537745197501222,0.0025410729764163698,-6.44860264582478e-06,14342.295380320422,14341.950768693063,14342.295456737294,14342.640996984897
0,2.0,0.1984384835085028,0.19846799900887394,0.6972466400405788,0.2452630359677248,0.24528640463943513,0.28102003620911087,-0.014889745647806834,0.014882463003131502,-0.00028719405297312795,0.00998372800139848,-0.009978676984675442,0.00016294865300196928,14342.295380320422,14341.950768693063,14342.295456737294,14342.640996984897,1.0,1.0,1.0,0.0,0.0,0.0,-0.002088683638920929,0.0020920436175710933,-4.369620442827484e-06,14342.392067820507,14342.055664224266,14342.39214465514,14342.728381581848
0,2.0208333333333335,0.20358171596011518,0.20361171891237603,0.7030521811096762,0.24794385773995786,0.2479672746480868,0.2770973759065094,-0.014678598582636641,0.014671564057738186,-0.0002806814346532372,0.010229283338476839,-0.010224230897353054,0.0001627762714655038,14342.392067820507,14342.055664224266,14342.39214465514,14342.728381581848,1.0,1.0,1.0,0.0,0.0,0.0,-0.0016422899099407333,0.0016456781803217968,-2.7026818804362727e-06,14342.5587471242,14342.230597597161,14342.558824315747,14342.88573550457
0,2.0416666666666665,0.20878022827437728,0.20881071966997106,0.7087761315067361,0.25057890286742596,0.2506023668905414,0.27318522871311335,-0.014462421469672488,0.014455634982500739,-0.0002741471402389289,0.010467993025975472,-0.010462940904438665,0.00016236961716641792,14342.5587471242,14342.230597597161,14342.558824315747,14342.88573550457,1.0,1.0,1.0,0.0,0.0,0.0,-0.0011987058727653756,0.0012021193554603293,-1.4409878742772941e-06,14342.792333268568,14342.472479771288,14342.792410742299,14343.10997901711
0,2.0625,0.2140330551061504,0.2140640359090254,0.7144187336094145,0.25316724209466746,0.25319075177728245,0.26928546249260676,-0.014241357281317145,0.014234818447326252,-0.0002676012748377872,0.010699841477363126,-0.010694791285846893,0.00016173430272854177,14342.792333268568,14342.472479771288,14342.792410742299,14343.10997901711,1.0,1.0,1.0,0.0,0.0,0.0,-0.0007580703113983666,0.0007615067259671982,-5.772756956739502e-07,14343.089829839948,14342.778310301142,14343.089907507841,14343.39812082094
0,2.0833333333333335,0.2193392120956622,0.21937068323498887,0.7199802676165111,0.25570797376319937,0.2557315272901013,0.2653998577094136,-0.014015549266173708,0.014009257412615947,-0.0002610537744330652,0.010924816436748714,-0.010919769661482684,0.00016087617337528053,14343.089829839948,14342.778310301142,14343.089907507841,14343.39812082094,1.0,1.0,1.0,0.0,0.0,0.0,-0.00032051892906196104,0.0003239767624756418,-1.0384068668898693e-07,14343.44832709353,14343.145175456546,14343.448404854931,14343.747256173665
0,2.1041666666666665,0.22469769644499135,0.2247296588073653,0.7254610497590824,0.2582002239335226,0.25822381910580067,0.26153010998261295,-0.013785140880064724,0.013779095060572174,-0.00025451439306814835,0.011142908922258521,-0.011137866934699347,0.00015980129241942857,14343.44832709353,14343.145175456546,14343.448404854931,14343.747256173665,1.0,1.0,1.0,0.0,0.0,0.0,0.00011381565302569815,-0.0001103371797293029,-1.2558098192645716e-08,14343.865000106354,14343.570246376363,14343.865077848637,14344.154565041285
0,2.125,0.23010748749693075,0.2301399419180985,0.7308614305640281,0.26064314649408077,0.26066678070692256,0.2576778325814025,-0.013550275718273315,0.013544474727666815,-0.0002479926906319986,0.011354113168861795,-0.011349077235186886,0.0001585159267505532,14343.865000106354,14343.570246376363,14343.865077848637,14344.154565041285,1.0,1.0,1.0,0.0,0.0,0.0,0.0005448038955542385,-0.0005413048622038286,-2.949050123863964e-07,14344.337106962976,14344.050777254899,14344.337184562293,14344.617310283316
0,2.1458333333333335,0.2355675473159552,0.23560049457210022,0.7361817931689564,0.26303592325697517,0.2630595934792936,0.2538445588636617,-0.013311097449016752,0.01330553983828288,-0.00024149802125108218,0.011558426570722043,-0.011553397861306904,0.000157026532345524,14344.337106962976,14344.050777254899,14344.337184562293,14344.617310283316,1.0,1.0,1.0,0.0,0.0,0.0,0.0009723193397427525,-0.0009687991633791082,-9.419823123783203e-07,14344.861986973025,14344.584103560122,14344.862064295066,14345.132835869932
0,2.1666666666666665,0.24107682127101593,0.24111026206964353,0.7414225516871583,0.2653777640402724,0.2654014667962167,0.2500317446591095,-0.013067749748161448,0.01306243383953984,-0.00023503952229198718,0.011755849623111388,-0.011750829221969523,0.0001553397398303855,14344.861986973025,14344.584103560122,14344.862064295066,14345.132835869932,1.0,1.0,1.0,0.0,0.0,0.0,0.00139623860471694,-0.001392696077166855,-1.9445366625848483e-06,14345.437058919892,14345.16764028298,14345.437135820684,14345.698565130326
0,2.1875,0.24663423861988013,0.2466681735903413,0.7465841496215571,0.2676679067367737,0.2676916380891695,0.24624077059849966,-0.01282037623518751,0.012815300137312424,-0.00022862610397788707,0.011946385863946652,-0.011941374778086858,0.0001534623401023099,14345.437058919892,14345.16764028298,14345.437135820684,14345.698565130326,1.0,1.0,1.0,0.0,0.0,0.0,0.001816441383678359,-0.0018128747101819886,-3.2929824649368875e-06,14346.0598193398,14345.798880217098,14346.059895666538,14346.311999031685
0,2.2083333333333335,0.252238713094733,0.2522731427784277,0.7516670583265229,0.2699056173691465,0.26992937290490215,0.24247294439024084,-0.012569120410409293,0.01256428203345114,-0.00022226643962066834,0.012130041815008737,-0.01212504098366119,0.00015140127005583686,14346.0598193398,14345.798880217098,14346.059895666538,14346.311999031685,1.0,1.0,1.0,0.0,0.0,0.0,0.002232810438902542,-0.002229217277616602,-4.977423757087556e-06,14346.727840830503,14346.475392268054,14346.727916422395,14346.970714487827
0,2.2291666666666665,0.25788914348875663,0.2579240683290583,0.7566717755164796,0.27209019013135083,0.2721139649488576,0.23872950304577423,-0.01231412559345733,0.012309522664212062,-0.00021596895646941802,0.012306826922884498,-0.012301837226568232,0.00014916359842014244,14346.727840830503,14346.475392268054,14346.727916422395,14346.970714487827,1.0,1.0,1.0,0.0,0.0,0.0,0.00264523159560216,-0.0026416090978091944,-6.987676020051752e-06,14347.43877038894,14347.194819791588,14347.438845078072,14347.672362696972
0,2.25,0.2635844142434006,0.2636198345753425,0.761598823820245,0.2742209474163219,0.2742447361148699,0.2350116150549884,-0.01205553486302647,0.012051164939902268,-0.00020974182717490412,0.012476753499670123,-0.012471775769072303,0.0001467565117344458,14347.43877038894,14347.194819791588,14347.438845078072,14347.672362696972,1.0,1.0,1.0,0.0,0.0,0.0,0.0030535937346913727,-0.0030499385855466965,-9.313287863950068e-06,14348.190327777058,14347.954878959936,14348.190401389274,14348.414667507783
0,2.2708333333333335,0.2693233960360563,0.2693593120758237,0.766448749380085,0.27629723982989923,0.27632103650112066,0.2313203825128955,-0.011793490997892975,0.011789351485746375,-0.00020359296186857808,0.01263983666351693,-0.012634871688139154,0.00014418730048004617,14348.190327777058,14347.954878959936,14348.190401389274,14348.414667507783,1.0,1.0,1.0,0.0,0.0,0.0,0.0034577887844868503,-0.0034540972441385875,-1.1943562561775528e-05,14348.980303915218,14348.75335715574,14348.98037627101,14349.1954238131
0,2.2916666666666665,0.2751049463678504,0.27514135820211916,0.7712221204944779,0.27831844619102064,0.27834224441236577,0.22765684319874233,-0.011528136419203026,0.011524224583978492,-0.0001975300008536268,0.012796094279033828,-0.012791142815584874,0.00014146334538661212,14348.980303915218,14348.75335715574,14348.98037627101,14349.1954238131,1.0,1.0,1.0,0.0,0.0,0.0,0.0038577117113809166,-0.0038539796563068496,-1.4867579402374825e-05,14349.806559302466,14349.58811139279,14349.80663021787,14350.012495970666
0,2.3125,0.28092791015127005,0.2809648177264352,0.7759195263036123,0.2802839735182247,0.28030776634846755,0.2240219726086784,-0.011259613134033647,0.01125592611716322,-0.00019156030790450714,0.012945546897608962,-0.012940609678114282,0.00013859210394015205,14349.806559302466,14349.58811139279,14349.80663021787,14350.012495970666,1.0,1.0,1.0,0.0,0.0,0.0,0.004253260509521678,-0.004249483473924842,-1.8074214835064103e-05,14350.667022463083,14350.457066762992,14350.667091750565,14350.8638162502
0,2.3333333333333335,0.2867911202973377,0.28682852340867315,0.7805415755166655,0.2821932570025308,0.282217036979294,0.22041668594305103,-0.010988062680226304,0.010984597512748153,-0.00018569096417060272,0.01308821769768756,-0.013083295437289663,0.00013558109709065725,14350.667022463083,14350.457066762992,14350.667091750565,14350.8638162502,1.0,1.0,1.0,0.0,0.0,0.0,0.004644336189534451,-0.004640509406651949,-2.155216337958567e-05,14351.559688418794,14351.358214909025,14351.559755888153,14351.747383306283
0,2.3541666666666665,0.29269339830204993,0.29273129658284197,0.7850888951799279,0.2840457599667882,0.2840695191060705,0.21684184004935234,-0.010713626072492132,0.01071037968884961,-0.0001799287626785141,0.013224132425053464,-0.013219225829475321,0.00013243789620560076,14351.559688418794,14351.358214909025,14351.559755888153,14351.747383306283,1.0,1.0,1.0,0.0,0.0,0.0,0.005030842766318589,-0.005026961209501302,-2.5289958276345816e-05,14352.482617186073,14352.289612521996,14352.482682645303,14352.66126067637
0,2.375,0.2986335548318024,0.29867194774249817,0.7895621294848654,0.28584097381160883,0.2858647036092903,0.21329823532179304,-0.010436443749787456,0.010433413001272278,-0.00017428020342675688,0.013353319333144188,-0.013348429105813414,0.00012917011025410127,14352.482617186073,14352.289612521996,14352.482682645303,14352.66126067637,1.0,1.0,1.0,0.0,0.0,0.0,0.005412687245952999,-0.0054087456693752145,-2.927599185313526e-05,14353.433932298009,14353.249379863682,14353.433995554187,14353.603575303507
0,2.3958333333333335,0.30461039030752174,0.3046492771249333,0.7939619386152237,0.2875784179480183,0.28760210938331254,0.2097866175584359,-0.01015665552395649,0.010153837191762707,-0.00016875148906582316,0.013475809123458915,-0.013470935972255278,0.00012578537325472617,14353.433932298009,14353.249379863682,14353.433995554187,14353.603575303507,1.0,1.0,1.0,0.0,0.0,0.0,0.005789779611743128,-0.00578577259061519,-3.349853558574922e-05,14354.411819350196,14354.235699312765,14354.41188021034,14354.572516083139
0,2.4166666666666665,0.31062269548722965,0.3106620752938339,0.7982889976323038,0.289257639716979,0.2892812832577953,0.2063076797767766,-0.00987440052963784,0.00987179133749573,-0.0001633485211556071,0.01359163488608701,-0.013586779529700008,0.00012229133200134746,14354.411819350196,14354.235699312765,14354.41188021034,14354.572516083139,1.0,1.0,1.0,0.0,0.0,0.0,0.006162032809441647,-0.006157954779599795,-3.7945759831187285e-05,14355.414524570206,14355.246813934587,14355.414582842095,14355.566332433547
